City_ID,City,Country,Date,Lat,Lng,Max Temp,Humidity,Cloudiness,Wind Speed,Current Description,Rain inches (last 3 hrs),Snow inches (last 3 hrs)
0,Atuona,PF,2019-11-10 23:02:41,-9.8,-139.03,79.99,68,4,9.98,clear sky,0,0
1,Bathsheba,BB,2019-11-10 23:02:41,13.22,-59.52,80.6,69,20,16.11,few clouds,0,0
2,Hithadhoo,MV,2019-11-10 23:02:41,-0.6,73.08,82.67,71,90,7.85,overcast clouds,0,0
3,Saskylakh,RU,2019-11-10 23:02:41,71.97,114.09,-9.12,95,100,1.99,overcast clouds,0,0
4,Sangar,RU,2019-11-10 23:02:42,63.92,127.47,-4.46,96,100,11.25,overcast clouds,0,0
5,Bluff,AU,2019-11-10 22:59:44,-23.58,149.07,84.58,14,48,9.82,scattered clouds,0,0
6,Khatanga,RU,2019-11-10 23:02:42,71.98,102.47,-2.3,97,100,8.99,light snow,0,0.31
7,Roald,NO,2019-11-10 23:02:42,62.58,6.12,26.6,79,0,9.17,clear sky,0,0
8,Rikitea,PF,2019-11-10 23:00:38,-23.12,-134.97,74.41,81,99,11.34,overcast clouds,0,0
9,Mataura,NZ,2019-11-10 23:02:43,-46.19,168.86,52.0,60,100,10.0,light rain,0.31,0
10,Ucluelet,CA,2019-11-10 23:02:43,48.94,-125.55,54.0,93,75,2.95,fog,0,0
11,Cape Town,ZA,2019-11-10 22:58:36,-33.93,18.42,66.99,77,21,6.93,light rain,0,0
12,Oussouye,SN,2019-11-10 23:02:43,12.49,-16.54,77.0,88,94,4.7,overcast clouds,0,0
13,Aklavik,CA,2019-11-10 23:02:43,68.22,-135.01,15.8,43,5,6.93,clear sky,0,0
14,Poum,MK,2019-11-10 23:02:44,41.28,20.71,41.0,85,50,1.16,scattered clouds,0,0
15,San Vicente,EC,2019-11-10 23:02:44,-0.59,-80.41,77.0,83,75,12.75,broken clouds,0,0
16,Puerto Ayora,EC,2019-11-10 23:00:38,-0.74,-90.35,77.0,65,40,9.17,scattered clouds,0,0
17,Ambad,IN,2019-11-10 23:02:44,19.61,75.79,67.5,76,0,3.89,clear sky,0,0
18,Tuktoyaktuk,CA,2019-11-10 22:59:54,69.44,-133.03,10.4,78,5,8.05,clear sky,0,0
19,Kaitangata,NZ,2019-11-10 23:02:45,-46.28,169.85,50.0,59,100,11.01,overcast clouds,0,0
20,Harper,US,2019-11-10 23:02:45,30.3,-99.24,64.4,68,90,12.75,overcast clouds,0,0
21,Arraial Do Cabo,BR,2019-11-10 23:02:45,-22.97,-42.02,77.0,88,75,11.41,light intensity drizzle,0,0
22,Los Llanos De Aridane,ES,2019-11-10 23:02:45,28.66,-17.92,69.8,73,20,18.34,few clouds,0,0
23,Yellowknife,CA,2019-11-10 23:02:45,62.45,-114.38,10.4,72,75,5.82,broken clouds,0,0
24,Jacareacanga,BR,2019-11-10 23:02:46,-6.22,-57.76,75.88,90,92,1.12,light rain,2.75,0
25,Flinders,AU,2019-11-10 23:02:46,-34.58,150.85,72.0,42,67,9.17,broken clouds,0,0
26,Saint-Joseph,FR,2019-11-10 23:02:46,43.56,6.97,57.2,87,100,3.36,light rain,0,0
27,Ust-Maya,RU,2019-11-10 23:02:46,60.42,134.54,-16.25,94,0,0.51,clear sky,0,0
28,Punta Arenas,CL,2019-11-10 23:00:32,-53.16,-70.91,51.8,57,75,3.36,broken clouds,0,0
29,Nyimba,ZM,2019-11-10 23:02:47,-14.56,30.81,73.87,66,75,8.61,broken clouds,0,0
30,Morondava,MG,2019-11-10 23:02:47,-20.3,44.28,73.62,73,0,4.47,clear sky,0,0
31,Tasiilaq,GL,2019-11-10 23:02:47,65.61,-37.64,37.4,95,100,57.49,light rain,0,0
32,Kapaa,US,2019-11-10 23:02:48,22.08,-159.32,82.4,69,90,6.93,light rain,0,0
33,Tessalit,ML,2019-11-10 23:02:48,20.2,1.01,72.41,14,100,13.2,overcast clouds,0,0
34,Nikolskoye,RU,2019-11-10 23:02:48,59.7,30.79,45.0,87,75,4.47,broken clouds,0,0
35,Albany,US,2019-11-10 22:59:59,42.65,-73.75,44.6,52,90,6.93,overcast clouds,0,0
36,Zhaoyang,CN,2019-11-10 23:02:49,42.68,126.03,41.2,74,84,10.6,light rain,0.13,0
37,Guhagar,IN,2019-11-10 23:02:49,17.48,73.19,79.68,75,0,7.05,clear sky,0,0
38,East London,ZA,2019-11-10 23:02:49,-33.02,27.91,68.2,81,100,21.41,light rain,1.13,0
39,Berlevag,NO,2019-11-10 23:02:49,70.86,29.09,26.6,63,75,17.22,broken clouds,0,0
40,Rock Falls,US,2019-11-10 23:02:49,43.21,-93.08,32.0,74,90,11.41,light snow,0,0
41,Tiksi,RU,2019-11-10 23:02:49,71.64,128.87,-10.74,96,95,0.89,overcast clouds,0,0
42,Parati,BR,2019-11-10 23:02:50,-20.51,-54.63,71.6,94,75,3.36,thunderstorm,0,0
43,Busselton,AU,2019-11-10 23:00:22,-33.64,115.35,61.0,51,0,11.34,clear sky,0,0
44,Longyearbyen,NO,2019-11-10 23:02:50,78.22,15.63,14.0,72,75,2.24,broken clouds,0,0
45,Kulhudhuffushi,MV,2019-11-10 23:02:50,6.62,73.07,81.55,69,0,5.19,clear sky,0,0
46,Arukutti,IN,2019-11-10 23:02:51,9.87,76.35,75.2,94,75,2.24,mist,0,0
47,Airai,TL,2019-11-10 23:02:51,-8.93,125.41,84.38,22,10,5.95,clear sky,0,0
48,Sola,TZ,2019-11-10 23:02:51,-3.17,33.8,70.5,71,89,3.98,overcast clouds,0,0
49,Carnarvon,ZA,2019-11-10 23:02:51,-30.97,22.13,61.45,55,28,9.78,scattered clouds,0,0
50,Manaquiri,BR,2019-11-10 23:02:52,-3.43,-60.46,82.4,69,75,12.75,shower rain,0,0
51,Jamestown,AU,2019-11-10 23:02:52,-33.21,138.6,78.49,13,0,18.3,clear sky,0,0
52,Gigmoto,PH,2019-11-10 23:02:52,13.78,124.39,81.37,81,100,11.79,light rain,2.25,0
53,Avarua,CK,2019-11-10 22:58:29,-21.21,-159.78,75.2,83,0,11.41,light rain,0,0
54,Chokurdakh,RU,2019-11-10 23:02:53,70.62,147.9,2.52,96,94,8.66,overcast clouds,0,0
55,Ponta Do Sol,BR,2019-11-10 23:02:53,-20.63,-46.0,70.9,83,94,4.76,overcast clouds,0,0
56,Ushuaia,AR,2019-11-10 22:59:36,-54.81,-68.31,60.8,38,6,3.38,clear sky,0,0
57,Bandarbeyla,SO,2019-11-10 23:02:53,9.49,50.81,79.47,70,34,12.84,light rain,0.25,0
58,San Carlos De Bariloche,AR,2019-11-10 23:02:54,-41.13,-71.31,73.4,23,75,10.29,broken clouds,0,0
59,Yerbogachen,RU,2019-11-10 23:02:54,61.28,108.01,-17.67,96,95,6.51,overcast clouds,0,0
60,Vestmannaeyjar,IS,2019-11-10 23:02:54,63.44,-20.27,44.53,86,100,45.16,moderate rain,5.69,0
61,Kahului,US,2019-11-10 23:01:50,20.89,-156.47,87.8,58,40,14.99,scattered clouds,0,0
62,Teruel,ES,2019-11-10 23:02:54,40.34,-1.11,50.0,92,26,10.29,scattered clouds,0,0
63,Mount Gambier,AU,2019-11-10 23:02:55,-37.83,140.78,59.0,67,99,14.99,overcast clouds,0,0
64,Jalu,LY,2019-11-10 23:02:55,29.03,21.55,67.78,71,100,5.84,overcast clouds,0,0
65,Lakatoro,VU,2019-11-10 23:02:55,-16.11,167.42,79.63,78,2,16.53,clear sky,0,0
66,Kruisfontein,ZA,2019-11-10 23:02:55,-34.0,24.73,63.07,85,92,17.36,overcast clouds,0,0
67,Mahebourg,MU,2019-11-10 23:02:55,-20.41,57.7,71.01,94,20,5.82,few clouds,0,0
68,Bintulu,MY,2019-11-10 23:02:56,3.17,113.03,78.8,94,75,1.97,thunderstorm,0,0
69,Dhaulpur,IN,2019-11-10 23:02:56,26.7,77.9,67.96,54,0,1.79,clear sky,0,0
70,Butaritari,KI,2019-11-10 23:02:56,3.07,172.79,83.91,71,98,6.6,overcast clouds,0,0
71,Nishihara,JP,2019-11-10 23:02:56,35.74,139.53,57.99,87,75,9.17,broken clouds,0,0
72,Wembley,CA,2019-11-10 23:02:57,55.15,-119.14,-0.41,91,20,5.82,few clouds,0,0
73,Lorengau,PG,2019-11-10 23:02:57,-2.02,147.27,83.12,73,81,7.58,moderate rain,4.5,0
74,Hobart,AU,2019-11-10 22:59:19,-42.88,147.33,61.0,54,75,9.17,broken clouds,0,0
75,Torbay,CA,2019-11-10 23:02:57,47.66,-52.73,36.0,69,20,8.05,few clouds,0,0
76,Labuhan,ID,2019-11-10 23:02:58,-2.54,115.51,82.27,69,0,0.85,clear sky,0,0
77,Kyshtovka,RU,2019-11-10 23:02:58,56.56,76.62,10.72,83,0,3.53,clear sky,0,0
78,Provideniya,RU,2019-11-10 23:02:58,64.42,-173.23,37.4,98,90,13.42,overcast clouds,0,0
79,Huilong,CN,2019-11-10 23:02:58,31.15,106.5,59.76,81,60,2.84,broken clouds,0,0
80,Port Alfred,ZA,2019-11-10 23:02:58,-33.59,26.89,63.0,96,100,5.01,light rain,0.56,0
81,Maracaibo,CO,2019-11-10 23:02:59,3.41,-75.78,80.6,57,40,13.87,scattered clouds,0,0
82,Batemans Bay,AU,2019-11-10 23:02:59,-35.71,150.18,68.0,47,36,6.51,scattered clouds,0,0
83,Ulladulla,AU,2019-11-10 23:02:59,-35.36,150.48,70.0,42,27,9.17,scattered clouds,0,0
84,Dikson,RU,2019-11-10 23:02:59,73.51,80.55,10.13,95,41,8.41,scattered clouds,0,0
85,Kiama,AU,2019-11-10 23:03:00,-34.67,150.86,70.0,42,67,9.17,broken clouds,0,0
86,Cap Malheureux,MU,2019-11-10 23:03:00,-19.98,57.61,71.01,94,20,5.82,few clouds,0,0
87,Mlowo,TZ,2019-11-10 23:03:00,-9.01,33.0,62.1,83,91,2.01,overcast clouds,0,0
88,Victoria,BN,2019-11-10 23:02:36,5.28,115.24,78.8,88,75,1.12,broken clouds,0,0
89,Vaini,IN,2019-11-10 23:03:00,15.34,74.49,66.13,80,0,5.03,clear sky,0,0
90,Thompson,CA,2019-11-10 23:00:08,55.74,-97.86,-4.01,70,40,2.24,scattered clouds,0,0
91,Mar Del Plata,AR,2019-11-10 23:03:01,-46.43,-67.52,51.67,78,27,10.92,light rain,0.44,0
92,Joaima,BR,2019-11-10 23:03:01,-16.65,-41.03,69.89,70,53,3.76,broken clouds,0,0
93,Balabac,PH,2019-11-10 23:03:01,7.99,117.06,81.93,76,18,4.72,few clouds,0,0
94,Tuatapere,NZ,2019-11-10 23:03:01,-46.13,167.69,52.0,60,100,10.0,light rain,0.44,0
95,Sampit,ID,2019-11-10 23:03:02,-2.54,112.95,81.01,82,0,0.87,light rain,1.19,0
96,Hilo,US,2019-11-10 23:03:02,19.71,-155.08,86.0,58,1,10.29,clear sky,0,0
97,Saint-Philippe,CA,2019-11-10 23:03:00,45.36,-73.48,43.0,75,90,11.41,light rain,0,0
98,Bredasdorp,ZA,2019-11-10 23:03:02,-34.53,20.04,66.0,82,100,13.87,overcast clouds,0,0
99,Barrow,AR,2019-11-10 23:03:02,-38.31,-60.23,54.5,83,69,14.34,broken clouds,0,0
100,Port-Cartier,CA,2019-11-10 23:03:03,50.03,-66.88,35.01,87,90,14.99,light snow,0,0
101,Mackay,CA,2019-11-10 23:03:03,53.65,-115.58,8.6,84,20,4.09,few clouds,0,0
102,Kavieng,PG,2019-11-10 23:03:03,-2.57,150.8,81.77,70,93,3.24,overcast clouds,0,0
103,Necochea,AR,2019-11-10 23:03:03,-38.55,-58.74,55.99,89,68,8.01,broken clouds,0,0
104,Bocaiuva,BR,2019-11-10 23:03:04,-17.12,-43.81,91.4,17,57,5.82,broken clouds,0,0
105,Mehamn,NO,2019-11-10 23:03:04,71.03,27.85,32.0,68,61,19.46,broken clouds,0,0
106,Kaeo,NZ,2019-11-10 23:03:04,-35.1,173.78,57.0,100,100,11.86,moderate rain,5.44,0
107,Iqaluit,CA,2019-11-10 23:03:04,63.75,-68.52,3.2,84,40,6.93,scattered clouds,0,0
108,Kupang,ID,2019-11-10 23:03:04,-10.16,123.6,80.6,83,20,3.36,few clouds,0,0
109,Matamoros,US,2019-11-10 22:58:27,25.87,-97.51,77.0,60,90,12.75,overcast clouds,0,0
110,Constantine,DZ,2019-11-10 22:58:28,36.36,6.61,44.6,81,90,11.41,overcast clouds,0,0
111,Isangel,VU,2019-11-10 23:03:05,-19.55,169.27,80.6,69,20,16.11,few clouds,0,0
112,Buenaventura,CO,2019-11-10 23:03:05,3.89,-77.07,74.59,97,96,2.8,moderate rain,4.81,0
113,Northam,AU,2019-11-10 23:03:06,-31.65,116.67,60.8,67,0,6.93,clear sky,0,0
114,Chai Badan,TH,2019-11-10 23:03:06,15.2,101.13,72.0,69,22,3.27,few clouds,0,0
115,Hermanus,ZA,2019-11-10 22:59:44,-34.42,19.24,66.0,87,63,11.01,broken clouds,0,0
116,Kindberg,AT,2019-11-10 23:02:30,47.51,15.45,37.0,92,0,0.92,fog,0,0
117,Inongo,CD,2019-11-10 23:03:06,-1.93,18.29,72.84,89,84,0.83,light rain,0.31,0
118,Campbell River,CA,2019-11-10 23:02:18,50.02,-125.24,53.6,87,75,3.36,broken clouds,0,0
119,Ribeira Grande,PT,2019-11-10 23:03:07,38.52,-28.7,61.92,85,39,3.06,scattered clouds,0,0
120,Daman,IN,2019-11-10 23:03:07,20.42,72.83,74.84,78,0,3.42,clear sky,0,0
121,Lavrentiya,RU,2019-11-10 23:03:07,65.58,-170.99,34.63,89,100,12.64,light rain,0.25,0
122,Visnes,NO,2019-11-10 23:03:08,59.36,5.22,34.0,92,98,8.05,overcast clouds,0,0
123,Mandan,US,2019-11-10 23:03:08,46.83,-100.89,12.2,66,90,13.87,light snow,0,0
124,Nome,US,2019-11-10 23:03:08,30.04,-94.42,71.6,72,1,8.05,clear sky,0,0
125,Yokadouma,CM,2019-11-10 23:03:08,3.52,15.05,70.63,82,84,1.39,broken clouds,0,0
126,Bumbuna,SL,2019-11-10 23:03:09,9.05,-11.73,69.87,97,4,2.01,clear sky,0,0
127,Hedaru,TZ,2019-11-10 23:03:09,-4.5,37.91,67.68,94,54,1.66,light rain,0.13,0
128,Griffith,AU,2019-11-10 22:59:19,-34.29,146.06,68.0,45,87,5.82,overcast clouds,0,0
129,Khorixas,NA,2019-11-10 23:03:09,-20.37,14.96,69.62,34,100,2.42,overcast clouds,0,0
130,Port Hedland,AU,2019-11-10 23:03:09,-20.31,118.58,75.2,69,48,6.93,scattered clouds,0,0
131,Srednekolymsk,RU,2019-11-10 23:03:10,67.46,153.71,-3.88,95,76,5.59,broken clouds,0,0
132,Coihaique,CL,2019-11-10 23:03:10,-45.58,-72.07,66.2,48,20,5.82,few clouds,0,0
133,Kilemary,RU,2019-11-10 23:03:10,56.78,46.86,33.73,95,97,8.77,overcast clouds,0,0
134,Sistranda,NO,2019-11-10 23:03:10,63.73,8.83,24.8,68,1,5.82,clear sky,0,0
135,Lamu,CN,2019-11-10 23:03:11,35.77,102.37,27.55,52,43,1.99,scattered clouds,0,0
136,Hami,CN,2019-11-10 23:03:11,42.84,93.51,35.35,41,16,1.79,few clouds,0,0
137,Beloha,MG,2019-11-10 23:03:11,-25.17,45.06,64.74,86,9,10.78,clear sky,0,0
138,Georgetown,GY,2019-11-10 23:02:59,6.8,-58.16,84.2,79,75,4.7,broken clouds,0,0
139,Geraldton,CA,2019-11-10 23:03:12,49.72,-86.95,5.0,71,40,5.82,scattered clouds,0,0
140,Alofi,NU,2019-11-10 23:03:12,-19.06,-169.92,80.6,65,22,11.41,few clouds,0,0
141,Mbandaka,CD,2019-11-10 23:03:12,0.05,18.26,71.49,98,74,3.98,light rain,1.44,0
142,Saldanha,PT,2019-11-10 23:03:12,41.42,-6.55,43.14,91,95,3.22,overcast clouds,0,0
143,Cherskiy,RU,2019-11-10 23:03:13,68.75,161.3,12.04,54,75,0.49,broken clouds,0,0
144,Axim,GH,2019-11-10 23:03:13,4.87,-2.24,75.76,92,83,5.64,moderate rain,3.37,0
145,Devils Lake,US,2019-11-10 23:03:13,48.11,-98.87,12.2,66,75,13.87,broken clouds,0,0
146,Immokalee,US,2019-11-10 23:03:13,26.42,-81.42,80.6,60,75,11.41,broken clouds,0,0
147,Monrovia,LR,2019-11-10 23:01:00,6.33,-10.8,78.8,94,75,5.26,broken clouds,0,0
148,Pyapon,MM,2019-11-10 23:03:13,16.29,95.68,73.02,90,0,1.03,clear sky,0,0
149,Upernavik,GL,2019-11-10 23:03:14,72.79,-56.15,26.37,63,95,10.58,overcast clouds,0,0
150,Vardo,US,2019-11-10 23:03:14,39.62,-77.74,55.4,57,1,5.73,clear sky,0,0
151,Macamic,CA,2019-11-10 23:03:14,48.75,-79.0,12.2,78,40,4.7,scattered clouds,0,0
152,San Patricio,PY,2019-11-10 23:03:14,-26.98,-56.83,74.05,73,23,9.6,few clouds,0,0
153,Qaanaaq,GL,2019-11-10 23:03:14,77.48,-69.36,-0.73,37,0,5.32,clear sky,0,0
154,Satwas,IN,2019-11-10 23:03:15,22.52,76.76,66.06,69,0,3.91,clear sky,0,0
155,At-Bashi,KG,2019-11-10 23:03:15,41.17,75.81,7.68,90,64,13.29,light snow,0,1
156,Abaete,BR,2019-11-10 23:03:15,-19.16,-45.45,79.38,51,68,6.06,broken clouds,0,0
157,Sao Joao Da Barra,BR,2019-11-10 23:03:15,-21.64,-41.05,75.42,90,100,4.36,light rain,2.56,0
158,Haines Junction,CA,2019-11-10 23:03:15,60.75,-137.51,2.62,58,0,0.92,clear sky,0,0
159,Portland,US,2019-11-10 23:03:16,43.66,-70.25,45.0,39,1,3.36,clear sky,0,0
160,Chuy,UY,2019-11-10 23:03:16,-33.69,-53.46,60.85,83,3,11.27,clear sky,0,0
161,Talnakh,RU,2019-11-10 23:03:16,69.49,88.39,-11.21,76,100,6.71,light snow,0,0
162,Severo-Kurilsk,RU,2019-11-10 23:03:16,50.68,156.12,30.76,84,85,19.55,light snow,0,0.44
163,Talcahuano,CL,2019-11-10 23:03:16,-36.72,-73.12,68.0,64,79,18.34,broken clouds,0,0
164,Cayenne,GF,2019-11-10 23:03:16,4.94,-52.33,82.4,78,80,4.7,broken clouds,0,0
165,Pacific Grove,US,2019-11-10 23:03:17,36.62,-121.92,78.01,72,1,5.82,clear sky,0,0
166,Bubaque,GW,2019-11-10 23:03:17,11.28,-15.83,83.43,71,20,11.36,few clouds,0,0
167,Marzuq,YE,2019-11-10 23:03:17,14.4,46.47,63.97,69,0,2.17,clear sky,0,0
168,Esperance,AU,2019-11-10 23:03:17,-33.86,121.89,55.4,71,75,10.29,broken clouds,0,0
169,Chkalovsk,RU,2019-11-10 23:03:18,56.76,43.24,41.0,93,90,13.42,overcast clouds,0,0
170,New Norfolk,AU,2019-11-10 23:03:18,-42.78,147.06,61.0,54,75,9.17,broken clouds,0,0
171,Castro,CL,2019-11-10 23:03:18,-42.48,-73.76,62.6,63,99,9.17,overcast clouds,0,0
172,Hat Yai,TH,2019-11-10 23:03:18,7.0,100.46,73.4,100,75,2.3,fog,0,0
173,Ilulissat,GL,2019-11-10 23:03:19,69.22,-51.1,41.0,30,100,14.99,overcast clouds,0,0
174,Bethel,US,2019-11-10 22:58:33,60.79,-161.76,41.0,93,1,9.17,clear sky,0,0
175,Hajipur,IN,2019-11-10 23:03:19,25.69,85.21,71.6,88,20,4.7,mist,0,0
176,Caraubas,BR,2019-11-10 23:01:35,-5.79,-37.56,86.0,62,98,16.11,overcast clouds,0,0
177,Nanortalik,GL,2019-11-10 23:03:19,60.14,-45.24,30.79,89,100,52.68,snow,0,2.69
178,Prince Rupert,CA,2019-11-10 23:03:20,54.32,-130.32,50.0,87,1,4.7,clear sky,0,0
179,Padang,ID,2019-11-10 23:03:20,-0.92,100.36,68.59,91,100,0.81,overcast clouds,0,0
180,Matagami,NG,2019-11-10 23:03:20,9.67,8.4,71.87,68,100,1.83,overcast clouds,0,0
181,Grand Gaube,MU,2019-11-10 23:03:20,-20.01,57.66,71.01,94,20,5.82,few clouds,0,0
182,Tazovskiy,RU,2019-11-10 23:03:20,67.47,78.7,-0.71,95,79,12.66,broken clouds,0,0
183,Olenino,RU,2019-11-10 23:03:21,56.21,33.48,47.79,91,100,9.28,overcast clouds,0,0
184,Changji,CN,2019-11-10 23:03:21,32.07,116.17,59.29,32,0,3.24,clear sky,0,0
185,Camacha,PT,2019-11-10 23:03:21,33.08,-16.33,66.2,63,40,11.41,scattered clouds,0,0
186,Maragogi,BR,2019-11-10 23:03:21,-9.01,-35.22,79.72,75,57,14.0,broken clouds,0,0
187,Aripuana,BR,2019-11-10 23:03:21,-9.17,-60.63,76.15,78,100,1.05,light rain,0.12,0
188,Bull Savanna,JM,2019-11-10 23:03:22,17.89,-77.59,71.92,93,26,0.43,light rain,1.25,0
189,Togur,RU,2019-11-10 23:03:22,58.36,82.83,1.54,87,45,4.47,scattered clouds,0,0
190,Mikhaylovka,RU,2019-11-10 23:03:22,52.96,103.29,11.97,75,100,5.01,overcast clouds,0,0
191,Kavaratti,IN,2019-11-10 23:03:22,10.57,72.64,80.85,73,69,6.58,broken clouds,0,0
192,Zhangye,CN,2019-11-10 23:03:23,38.94,100.46,31.12,29,40,1.81,scattered clouds,0,0
193,Sao Filipe,CV,2019-11-10 23:03:23,14.9,-24.5,74.62,81,82,17.65,broken clouds,0,0
194,Yuzhnyy,RU,2019-11-10 23:03:23,53.54,39.45,42.06,93,91,12.57,overcast clouds,0,0
195,Barentu,ER,2019-11-10 23:03:23,15.11,37.59,76.15,34,0,1.48,clear sky,0,0
196,Half Moon Bay,US,2019-11-10 23:03:23,37.46,-122.43,77.0,67,20,6.93,few clouds,0,0
197,Virginia Beach,US,2019-11-10 22:59:31,36.85,-75.98,61.0,66,1,14.41,clear sky,0,0
198,Samarai,PG,2019-11-10 23:03:24,-10.62,150.67,79.32,70,94,7.76,overcast clouds,0,0
199,Sorong,ID,2019-11-10 23:03:24,-0.86,131.25,83.25,70,24,4.56,few clouds,0,0
200,Cancuc,MX,2019-11-10 23:03:24,16.92,-92.48,62.85,99,58,1.48,light rain,1.19,0
201,Coquimbo,CL,2019-11-10 23:03:24,-29.95,-71.34,60.8,77,20,11.41,few clouds,0,0
202,Tiznit,MA,2019-11-10 23:03:25,29.7,-9.73,54.25,53,17,1.57,few clouds,0,0
203,Port Lincoln,AU,2019-11-10 23:03:25,-34.72,135.86,83.12,16,0,23.0,clear sky,0,0
204,Salalah,OM,2019-11-10 23:00:33,17.01,54.1,77.0,65,20,5.82,few clouds,0,0
205,Namibe,AO,2019-11-10 23:03:25,-15.19,12.15,77.59,83,53,4.34,broken clouds,0,0
206,Great Falls,US,2019-11-10 23:03:25,47.5,-111.29,12.99,92,90,12.75,light snow,0,0
207,Kodinsk,RU,2019-11-10 23:03:26,58.6,99.18,-5.59,91,100,6.87,overcast clouds,0,0
208,Mount Isa,AU,2019-11-10 23:03:26,-20.73,139.49,86.0,9,82,9.17,broken clouds,0,0
209,Lebu,ET,2019-11-10 23:03:26,8.96,38.73,50.61,75,37,1.61,scattered clouds,0,0
210,Aljezur,PT,2019-11-10 23:03:26,37.31,-8.8,60.01,77,71,24.96,light rain,0.13,0
211,Majene,ID,2019-11-10 23:03:26,-3.54,118.97,82.49,72,33,2.93,scattered clouds,0,0
212,Aswan,EG,2019-11-10 23:03:27,24.09,32.9,77.0,47,0,11.41,clear sky,0,0
213,Caravelas,BR,2019-11-10 23:03:27,-17.73,-39.27,72.59,92,79,8.01,broken clouds,0,0
214,Hamilton,CA,2019-11-10 23:02:06,43.26,-79.87,44.6,91,90,6.93,light rain,0,0
215,Ibra,OM,2019-11-10 23:03:27,22.69,58.55,69.76,62,4,3.13,clear sky,0,0
216,Xinzhou,CN,2019-11-10 23:03:27,38.41,112.73,38.23,43,0,1.28,clear sky,0,0
217,Saint George,GR,2019-11-10 23:03:28,39.45,22.34,53.6,93,0,6.93,clear sky,0,0
218,Pevek,RU,2019-11-10 23:03:28,69.7,170.27,11.52,75,95,1.52,overcast clouds,0,0
219,Ketchikan,US,2019-11-10 23:03:28,55.34,-131.65,48.2,93,90,18.34,overcast clouds,0,0
220,Thunder Bay,CA,2019-11-10 22:59:00,48.41,-89.26,14.0,51,75,10.29,broken clouds,0,0
221,Sicuani,PE,2019-11-10 23:03:28,-14.27,-71.23,39.43,86,100,2.8,moderate rain,3.38,0
222,Naze,NG,2019-11-10 23:03:28,5.43,7.07,73.4,100,75,2.1,broken clouds,0,0
223,Broome,GB,2019-11-10 23:03:29,52.47,1.45,44.01,100,88,4.7,overcast clouds,0,0
224,Parkes,AU,2019-11-10 23:03:29,-33.14,148.18,71.6,35,60,5.73,broken clouds,0,0
225,Ozernovskiy,RU,2019-11-10 23:03:29,51.5,156.52,35.71,71,96,17.31,light snow,0,0.94
226,Sisimiut,GL,2019-11-10 23:03:29,66.94,-53.67,29.26,56,97,8.59,overcast clouds,0,0
227,Ahipara,NZ,2019-11-10 23:03:29,-35.17,173.16,57.0,100,100,11.16,moderate rain,3.5,0
228,Chimbote,PE,2019-11-10 23:03:30,-9.08,-78.59,64.29,81,0,6.15,clear sky,0,0
229,Altay,CN,2019-11-10 23:03:30,47.83,88.13,19.45,97,100,3.09,snow,0,2.31
230,Westport,US,2019-11-10 22:59:46,41.14,-73.36,51.8,61,40,3.36,scattered clouds,0,0
231,Havre-Saint-Pierre,CA,2019-11-10 23:03:30,50.23,-63.6,33.8,86,90,10.29,light rain,0,0
232,San Cristobal,HN,2019-11-10 23:03:30,14.68,-86.92,67.05,93,82,3.53,light rain,2.31,0
233,Lompoc,US,2019-11-10 23:03:31,34.64,-120.46,71.6,46,1,8.05,clear sky,0,0
234,Kampong Thum,KH,2019-11-10 23:03:31,12.71,104.89,70.63,76,100,8.81,overcast clouds,0,0
235,Karasjok,NO,2019-11-10 23:03:32,69.47,25.52,3.2,71,0,8.05,clear sky,0,0
236,Barcelos,BR,2019-11-10 23:03:32,-0.97,-62.93,77.11,88,90,2.64,overcast clouds,0,0
237,Fortuna,US,2019-11-10 23:03:32,40.6,-124.16,66.99,76,1,11.41,clear sky,0,0
238,Chickasha,US,2019-11-10 23:03:32,35.05,-97.94,73.4,56,1,9.17,clear sky,0,0
239,Borisoglebskiy,RU,2019-11-10 23:03:33,57.26,39.15,44.6,100,90,8.95,light intensity drizzle,0,0
240,Olawa,PL,2019-11-10 22:59:18,50.95,17.29,41.0,93,75,2.24,broken clouds,0,0
241,Ahome,MX,2019-11-10 23:03:33,25.92,-109.18,88.0,38,75,18.34,broken clouds,0,0
242,Cabo San Lucas,MX,2019-11-10 23:00:00,22.89,-109.91,84.99,54,75,10.29,broken clouds,0,0
243,Dudinka,RU,2019-11-10 23:03:34,69.41,86.18,-11.21,76,99,6.71,light snow,0,0
244,Bhawanipatna,IN,2019-11-10 23:03:34,19.91,83.17,66.94,92,0,1.12,clear sky,0,0
245,Husavik,CA,2019-11-10 23:03:34,50.56,-96.99,10.0,67,17,8.01,few clouds,0,0
246,Hambantota,LK,2019-11-10 23:03:35,6.12,81.12,79.41,77,90,6.51,overcast clouds,0,0
247,Challapata,BO,2019-11-10 23:03:35,-18.9,-66.78,52.57,67,96,12.71,light rain,1.69,0
248,Yining,CN,2019-11-10 23:03:35,29.04,114.56,53.91,53,1,0.65,clear sky,0,0
249,Panama City,US,2019-11-10 23:03:35,30.16,-85.65,69.8,56,1,5.82,light rain,0,0
250,Hobyo,SO,2019-11-10 23:03:35,5.35,48.53,76.96,82,15,10.45,few clouds,0,0
251,Manzhouli,CN,2019-11-10 22:58:54,49.6,117.43,16.86,47,0,17.69,clear sky,0,0
252,Santo Antonio Do Monte,BR,2019-11-10 23:03:36,-20.09,-45.29,77.47,53,70,5.46,broken clouds,0,0
253,Tigil,RU,2019-11-10 23:03:36,57.8,158.67,31.03,94,96,10.74,light snow,0,0.69
254,La Ronge,CA,2019-11-10 23:03:36,55.1,-105.3,6.8,55,75,17.22,broken clouds,0,0
255,Cidreira,BR,2019-11-10 23:03:36,-30.17,-50.22,69.67,85,98,16.64,light rain,1.69,0
256,Santa Ines,EC,2019-11-10 23:03:36,-0.82,-78.63,57.2,76,40,8.05,scattered clouds,0,0
257,Hofn,IS,2019-11-10 23:03:37,64.25,-15.21,43.02,80,100,42.68,light rain,0.5,0
258,Inhambane,MZ,2019-11-10 23:03:37,-23.87,35.38,75.36,77,61,12.46,broken clouds,0,0
259,Port Hawkesbury,CA,2019-11-10 23:03:37,45.62,-61.36,43.0,79,90,8.05,overcast clouds,0,0
260,Koshurnikovo,RU,2019-11-10 23:03:37,54.3,93.39,3.79,85,100,3.2,overcast clouds,0,0
261,Puerto Narino,CO,2019-11-10 23:03:38,-3.77,-70.38,77.0,100,75,3.36,shower rain,0,0
262,Erdenet,MN,2019-11-10 23:03:38,49.03,104.04,14.02,81,100,5.03,light snow,0,0.31
263,Yar-Sale,RU,2019-11-10 23:03:38,66.83,70.83,-7.86,98,0,8.28,clear sky,0,0
264,Soavinandriana,MG,2019-11-10 23:03:39,-19.17,46.74,72.5,63,71,4.21,broken clouds,0,0
265,Norman Wells,CA,2019-11-10 23:02:26,65.28,-126.83,6.8,77,5,2.24,clear sky,0,0
266,Oktyabrskiy,RU,2019-11-10 23:03:39,55.61,37.97,45.0,93,90,6.71,mist,0,0
267,Fojnica,BA,2019-11-10 22:59:58,43.96,17.9,44.6,100,75,2.24,broken clouds,0,0
268,Klaksvik,FO,2019-11-10 23:03:39,62.23,-6.59,39.2,80,100,25.28,light rain,0,0
269,Yulara,AU,2019-11-10 23:03:40,-25.24,130.99,71.6,9,42,8.05,scattered clouds,0,0
270,Camabatela,AO,2019-11-10 23:03:40,-8.19,15.37,66.81,98,91,6.62,light rain,1.38,0
271,Bonavista,CA,2019-11-10 23:03:40,48.65,-53.11,33.01,80,17,4.0,few clouds,0,0
272,Dutlwe,BW,2019-11-10 23:03:40,-23.98,23.93,71.37,67,94,5.77,overcast clouds,0,0
273,Acacoyagua,MX,2019-11-10 23:03:40,15.34,-92.68,87.8,66,75,11.41,broken clouds,0,0
274,Cabatuan,PH,2019-11-10 23:03:41,16.95,121.67,73.98,88,82,3.91,broken clouds,0,0
275,Shingu,JP,2019-11-10 23:03:41,33.72,135.99,65.23,75,78,15.19,light rain,1.44,0
276,Pochutla,MX,2019-11-10 23:03:41,15.74,-96.47,88.0,62,40,13.87,scattered clouds,0,0
277,Biankouma,CI,2019-11-10 23:03:41,7.74,-7.61,71.91,67,73,2.08,broken clouds,0,0
278,Apatou,SR,2019-11-10 23:03:41,5.16,-54.34,75.88,87,100,2.68,overcast clouds,0,0
279,Silvania,CO,2019-11-10 23:03:41,4.4,-74.39,60.8,67,75,9.17,shower rain,0,0
280,Tocopilla,CL,2019-11-10 23:03:42,-22.09,-70.2,55.26,41,51,2.42,broken clouds,0,0
281,Luderitz,NA,2019-11-10 23:03:42,-26.65,15.16,60.8,87,0,2.24,clear sky,0,0
282,Souillac,FR,2019-11-10 23:03:42,45.6,-0.6,39.99,93,30,5.82,scattered clouds,0,0
283,Doha,QA,2019-11-10 23:00:07,25.29,51.53,73.4,78,0,4.7,clear sky,0,0
284,Kodiak,US,2019-11-10 23:03:42,39.95,-94.76,55.4,50,1,10.29,clear sky,0,0
285,Talakan,RU,2019-11-10 23:03:43,50.29,130.28,24.93,94,100,4.41,snow,0,2.13
286,Ivanava,BY,2019-11-10 23:03:43,52.14,25.53,51.24,96,100,6.78,light rain,0.56,0
287,Pandan,PH,2019-11-10 23:03:43,11.72,122.09,81.27,74,67,0.76,broken clouds,0,0
288,Balclutha,NZ,2019-11-10 23:03:43,-46.24,169.74,50.0,59,100,11.01,light rain,0.19,0
289,Karlshus,NO,2019-11-10 23:03:44,59.35,10.87,30.0,92,90,4.7,light snow,0,0
290,Kharitonovo,RU,2019-11-10 23:03:44,61.4,47.5,34.2,98,100,7.63,overcast clouds,0,0
291,Baghdad,IQ,2019-11-10 23:00:16,33.3,44.38,59.0,54,0,2.24,clear sky,0,0
292,Darhan,MN,2019-11-10 23:03:44,49.49,105.92,16.18,63,100,8.97,overcast clouds,0,0
293,Lipari,IT,2019-11-10 23:03:44,38.47,14.95,62.6,55,75,4.7,light rain,0,0
294,Bilma,NE,2019-11-10 23:03:45,18.69,12.92,76.41,16,60,7.29,broken clouds,0,0
295,Sitka,US,2019-11-10 22:59:28,37.17,-99.65,62.01,38,100,1.01,overcast clouds,0,0
296,Anjangaon,IN,2019-11-10 23:03:45,21.16,77.31,68.5,73,0,4.43,clear sky,0,0
297,Valparaiso,US,2019-11-10 23:03:45,41.47,-87.06,44.6,100,90,8.05,overcast clouds,0,0
298,Pires Do Rio,BR,2019-11-10 23:03:45,-17.3,-48.28,73.56,72,99,3.74,overcast clouds,0,0
299,Badou,TG,2019-11-10 23:03:46,7.58,0.61,73.83,84,93,3.04,overcast clouds,0,0
300,Hermosillo,MX,2019-11-10 23:03:46,29.09,-110.96,84.99,32,100,7.0,overcast clouds,0,0
301,Tabou,CI,2019-11-10 23:03:46,4.42,-7.36,76.23,94,3,2.35,clear sky,0,0
302,Spornoye,RU,2019-11-10 23:03:46,50.84,37.29,44.6,100,40,11.18,mist,0,0
303,Mogadishu,SO,2019-11-10 23:02:36,2.04,45.34,81.7,76,100,13.85,light rain,2.25,0
304,Jieshi,CN,2019-11-10 23:03:47,22.82,115.83,65.19,59,60,3.8,broken clouds,0,0
305,Kiruna,SE,2019-11-10 23:03:47,67.86,20.23,-5.81,83,0,5.23,clear sky,0,0
306,Faanui,PF,2019-11-10 23:03:47,-16.48,-151.75,80.06,77,92,11.14,moderate rain,3.56,0
307,Mahajanga,MG,2019-11-10 23:03:47,-15.72,46.32,78.8,88,40,2.24,scattered clouds,0,0
308,Sambava,MG,2019-11-10 23:03:48,-14.27,50.17,68.49,92,100,2.57,overcast clouds,0,0
309,Viransehir,TR,2019-11-10 23:03:48,37.24,39.76,59.16,29,0,6.78,clear sky,0,0
310,Verkhnyaya Inta,RU,2019-11-10 23:03:48,65.99,60.32,12.52,92,100,12.64,light snow,0,0.63
311,Vega Baja,PR,2019-11-10 23:03:48,18.44,-66.39,84.2,70,40,5.82,shower rain,0,0
312,Houston,US,2019-11-10 23:03:06,29.76,-95.37,72.0,60,1,8.25,clear sky,0,0
313,Okhotsk,RU,2019-11-10 23:03:49,59.36,143.24,11.62,82,96,7.9,overcast clouds,0,0
314,Ashland,US,2019-11-10 22:59:38,38.48,-82.64,62.6,39,1,5.82,clear sky,0,0
315,Touros,BR,2019-11-10 23:03:49,-5.2,-35.46,78.8,78,40,6.93,scattered clouds,0,0
316,Havelock,US,2019-11-10 23:03:49,34.88,-76.9,57.2,76,1,4.7,clear sky,0,0
317,Taoudenni,ML,2019-11-10 23:03:50,22.68,-3.98,64.65,24,0,5.95,clear sky,0,0
318,Ugoofaaru,MV,2019-11-10 23:03:50,5.67,73.0,82.17,74,48,9.64,scattered clouds,0,0
319,San Jose,HN,2019-11-10 23:00:33,14.25,-87.96,65.88,86,100,6.29,overcast clouds,0,0
320,Abbeville,FR,2019-11-10 23:03:50,50.11,1.83,44.6,100,90,5.82,overcast clouds,0,0
321,Saint-Denis,FR,2019-11-10 23:03:50,48.94,2.36,44.01,93,75,6.93,broken clouds,0,0
322,San Isidro,CR,2019-11-10 23:03:51,10.02,-84.06,73.4,88,75,5.82,shower rain,0,0
323,Eyl,SO,2019-11-10 23:03:51,7.98,49.82,78.87,77,0,18.52,clear sky,0,0
324,Vao,EE,2019-11-10 23:03:51,59.1,26.19,40.59,95,96,6.44,overcast clouds,0,0
325,Aguimes,ES,2019-11-10 23:03:51,27.91,-15.45,69.8,64,75,24.16,broken clouds,0,0
326,Zuhres,UA,2019-11-10 23:03:52,48.02,38.27,42.82,94,13,6.96,few clouds,0,0
327,The Valley,AI,2019-11-10 23:00:03,18.22,-63.06,82.4,74,20,11.41,few clouds,0,0
328,Sur,OM,2019-11-10 23:03:52,22.57,59.53,74.28,59,0,6.17,clear sky,0,0
329,Fairbanks,US,2019-11-10 23:00:40,64.84,-147.72,18.0,92,90,1.23,overcast clouds,0,0
330,Paamiut,GL,2019-11-10 23:03:53,61.99,-49.67,37.62,85,100,4.18,overcast clouds,0,0
331,Katsuura,JP,2019-11-10 23:03:53,33.93,134.5,61.0,87,40,8.05,scattered clouds,0,0
332,Fukue,JP,2019-11-10 23:03:53,35.03,136.69,55.4,76,75,3.36,light intensity shower rain,0,0
333,Seoul,KR,2019-11-10 22:59:11,37.57,126.98,55.4,100,90,1.12,moderate rain,0,0
334,Port Elizabeth,US,2019-11-10 23:03:54,39.31,-74.98,54.0,61,1,3.36,clear sky,0,0
335,Merauke,ID,2019-11-10 23:03:54,-8.49,140.4,77.34,87,100,4.5,overcast clouds,0,0
336,Riom,FR,2019-11-10 23:03:54,45.89,3.11,35.01,91,0,2.24,clear sky,0,0
337,Pashiya,RU,2019-11-10 23:03:54,58.43,58.26,23.41,94,100,7.81,light snow,0,0.13
338,Lagoa,PT,2019-11-10 23:03:54,37.14,-8.45,60.8,72,75,13.87,broken clouds,0,0
339,Twentynine Palms,US,2019-11-10 23:03:55,34.14,-116.05,91.4,5,1,4.7,clear sky,0,0
340,Xining,CN,2019-11-10 23:03:55,36.62,101.77,29.01,43,76,4.21,broken clouds,0,0
341,Tezu,IN,2019-11-10 23:03:55,27.93,96.16,63.36,97,98,0.98,light rain,1.5,0
342,Najran,SA,2019-11-10 23:03:55,17.54,44.22,66.2,34,0,3.71,clear sky,0,0
343,Chapais,CA,2019-11-10 23:03:56,49.78,-74.86,8.6,84,20,4.7,few clouds,0,0
344,Palmer,AU,2019-11-10 23:03:56,-34.85,139.16,82.99,17,3,20.8,clear sky,0,0
345,Vila Velha,BR,2019-11-10 23:03:56,-3.71,-38.6,86.0,74,66,8.05,broken clouds,0,0
346,Port Hardy,CA,2019-11-10 23:00:09,50.7,-127.42,50.0,93,75,4.7,broken clouds,0,0
347,Malmo,US,2019-11-10 23:03:56,46.33,-93.52,21.2,44,75,8.05,broken clouds,0,0
348,Laguna,BZ,2019-11-10 23:02:03,16.17,-88.94,86.0,70,40,4.7,scattered clouds,0,0
349,Chimoio,MZ,2019-11-10 23:03:57,-19.11,33.48,71.6,83,40,1.86,scattered clouds,0,0
350,Kalmunai,LK,2019-11-10 23:03:57,7.42,81.82,79.77,78,13,2.98,few clouds,0,0
351,Araouane,ML,2019-11-10 23:03:57,18.9,-3.53,76.3,13,100,11.99,overcast clouds,0,0
352,Bangassou,CF,2019-11-10 23:03:57,4.74,22.82,70.23,87,0,2.01,clear sky,0,0
353,Kisesa,TZ,2019-11-10 23:03:58,-2.55,33.05,72.91,71,78,1.74,light rain,0.75,0
354,Zhezkazgan,KZ,2019-11-10 23:03:58,47.8,67.71,18.36,58,0,1.92,clear sky,0,0
355,Rubtsovsk,RU,2019-11-10 23:03:58,51.53,81.22,14.92,64,0,6.69,clear sky,0,0
356,Bambous Virieux,MU,2019-11-10 23:03:58,-20.34,57.76,71.01,94,20,5.82,few clouds,0,0
357,Maniitsoq,GL,2019-11-10 23:03:59,65.42,-52.9,36.91,60,98,10.02,overcast clouds,0,0
358,Usinsk,RU,2019-11-10 23:03:59,66.0,57.56,15.42,94,100,13.47,light snow,0,1.06
359,Lumphat,KH,2019-11-10 23:03:59,13.5,106.97,66.92,97,100,9.62,moderate rain,3.25,0
360,Vila Franca Do Campo,PT,2019-11-10 23:03:59,37.72,-25.43,62.6,82,20,5.82,few clouds,0,0
361,Richards Bay,ZA,2019-11-10 23:03:59,-28.77,32.06,70.54,92,100,23.89,moderate rain,6,0
362,Ranghulu,CN,2019-11-10 23:04:00,46.63,124.88,35.71,56,0,11.88,clear sky,0,0
363,Dicabisagan,PH,2019-11-10 23:04:01,17.08,122.42,77.02,87,99,10.45,light rain,0.81,0
364,Colborne,CA,2019-11-10 23:04:01,44.01,-77.89,45.0,86,90,11.41,light intensity shower rain,0,0
365,Alice Springs,AU,2019-11-10 23:00:11,-23.7,133.88,77.0,9,56,6.93,broken clouds,0,0
366,Nihommatsu,JP,2019-11-10 23:04:01,37.58,140.43,48.0,93,75,1.12,broken clouds,0,0
367,Cilegon,ID,2019-11-10 23:04:02,-6.02,106.05,78.01,83,40,3.36,scattered clouds,0,0
368,Spearfish,US,2019-11-10 23:04:02,44.49,-103.86,19.0,100,75,9.4,light snow,0,0
369,Fukuma,JP,2019-11-10 23:04:02,33.77,130.47,62.6,87,75,8.05,broken clouds,0,0
370,Sao Gabriel Da Cachoeira,BR,2019-11-10 23:04:02,-0.13,-67.09,76.86,88,91,1.28,light rain,1.56,0
371,Parintins,BR,2019-11-10 23:04:02,-2.63,-56.73,81.48,64,80,2.33,broken clouds,0,0
372,Igrim,RU,2019-11-10 23:04:03,63.19,64.42,12.34,92,100,11.63,light snow,0,0.38
373,Namatanai,PG,2019-11-10 23:04:03,-3.66,152.44,83.48,68,90,5.59,overcast clouds,0,0
374,Diego De Almagro,CL,2019-11-10 23:04:03,-26.39,-70.05,59.43,48,0,3.27,clear sky,0,0
375,Apopka,US,2019-11-10 23:04:03,28.68,-81.51,72.0,60,1,10.29,clear sky,0,0
376,Meulaboh,ID,2019-11-10 23:04:03,4.14,96.13,79.57,78,99,3.02,light rain,3,0
377,Cedar City,US,2019-11-10 23:04:04,37.68,-113.06,66.2,9,1,4.7,clear sky,0,0
378,Camp Verde,US,2019-11-10 23:04:04,34.56,-111.85,73.99,39,1,10.65,clear sky,0,0
379,Mindelo,PT,2019-11-10 23:04:04,41.31,-8.72,57.0,100,75,3.36,light intensity drizzle,0,0
380,Fort Nelson,CA,2019-11-10 23:04:04,58.81,-122.69,5.0,71,5,2.24,clear sky,0,0
381,Asyut,EG,2019-11-10 23:04:04,27.18,31.19,64.4,63,0,9.17,clear sky,0,0
382,Saint Anthony,US,2019-11-10 23:04:05,43.97,-111.68,51.8,39,1,8.05,clear sky,0,0
383,Yenagoa,NG,2019-11-10 23:04:05,4.92,6.26,71.35,91,95,1.07,overcast clouds,0,0
384,Zuwarah,LY,2019-11-10 23:04:05,32.93,12.08,66.4,37,70,9.91,broken clouds,0,0
385,Maltahohe,NA,2019-11-10 23:04:05,-24.83,16.98,58.91,46,0,16.26,clear sky,0,0
386,Leningradskiy,RU,2019-11-10 23:04:06,69.38,178.42,16.97,68,58,8.01,broken clouds,0,0
387,Kuhdasht,IR,2019-11-10 23:04:06,33.53,47.61,48.2,34,0,9.17,clear sky,0,0
388,Sibolga,ID,2019-11-10 23:04:06,1.74,98.78,72.07,94,70,1.48,broken clouds,0,0
389,Rudnogorsk,RU,2019-11-10 23:04:07,57.27,103.75,-3.73,90,100,6.38,overcast clouds,0,0
390,Saint-Pierre,FR,2019-11-10 23:04:07,48.95,4.24,44.6,100,75,6.93,broken clouds,0,0
391,College,US,2019-11-10 23:04:07,64.86,-147.8,19.4,92,90,2.17,overcast clouds,0,0
392,Tautira,PF,2019-11-10 23:04:06,-17.73,-149.15,78.8,78,75,23.04,shower rain,0,0
393,Afonso Claudio,BR,2019-11-10 23:04:08,-20.07,-41.12,69.73,55,100,3.91,overcast clouds,0,0
394,Jardim,BR,2019-11-10 23:04:08,-21.48,-56.15,74.86,87,89,2.1,moderate rain,6,0
395,Tanabe,JP,2019-11-10 23:04:08,33.73,135.39,59.0,82,49,1.99,light rain,2.81,0
396,Castro Marim,ES,2019-11-10 23:04:08,37.22,-7.45,60.8,72,75,13.87,broken clouds,0,0
397,Moose Factory,CA,2019-11-10 23:04:00,51.26,-80.61,8.6,78,90,13.87,light snow,0,0
398,Turan,RU,2019-11-10 23:04:09,52.15,93.92,10.72,65,100,6.69,overcast clouds,0,0
399,Rocha,UY,2019-11-10 23:04:09,-34.48,-54.34,53.82,95,0,6.78,clear sky,0,0
400,Orumiyeh,IR,2019-11-10 23:04:09,37.55,45.08,33.8,64,0,4.7,clear sky,0,0
401,Codrington,AU,2019-11-10 23:04:09,-28.95,153.24,73.99,63,90,5.06,overcast clouds,0,0
402,Aborlan,PH,2019-11-10 23:04:10,9.44,118.55,75.2,88,20,6.93,few clouds,0,0
403,Mecca,SA,2019-11-10 23:00:03,21.43,39.83,77.41,58,3,2.39,clear sky,0,0
404,Coahuayana,MX,2019-11-10 23:04:10,18.62,-100.35,78.03,67,2,1.16,clear sky,0,0
405,Goiatuba,BR,2019-11-10 23:04:10,-18.02,-49.36,74.28,76,100,3.6,light rain,0.88,0
406,Penzance,GB,2019-11-10 23:04:10,50.12,-5.53,48.99,81,100,20.8,light rain,0.94,0
407,Svetlaya,RU,2019-11-10 23:04:11,46.54,138.33,41.72,53,100,8.23,overcast clouds,0,0
408,Troitsko-Pechorsk,RU,2019-11-10 23:04:11,62.71,56.19,23.11,95,100,8.1,light snow,0,1
409,Waipawa,NZ,2019-11-10 23:04:11,-39.94,176.59,57.0,78,63,11.99,broken clouds,0.06,0
410,Kieta,PG,2019-11-10 23:04:11,-6.22,155.63,83.57,67,86,6.33,overcast clouds,0,0
411,Ocos,GT,2019-11-10 23:04:12,14.51,-92.19,89.6,59,20,9.17,few clouds,0,0
412,Florestopolis,BR,2019-11-10 23:04:12,-22.86,-51.39,75.2,88,40,4.7,shower rain,0,0
413,Katobu,ID,2019-11-10 23:04:12,-4.94,122.53,85.78,58,49,5.35,scattered clouds,0,0
414,Matara,BI,2019-11-10 23:04:12,-3.48,29.48,59.09,86,95,4.63,overcast clouds,0,0
415,Sioux Lookout,CA,2019-11-10 23:04:13,50.1,-91.92,8.6,60,75,14.99,light shower snow,0,0
416,Praia,BR,2019-11-10 23:04:13,-20.25,-43.81,84.2,42,20,9.17,few clouds,0,0
417,Sinnamary,GF,2019-11-10 23:04:13,5.38,-52.96,81.73,84,61,15.37,broken clouds,0,0
418,San Rafael,AR,2019-11-10 23:04:13,-34.61,-68.33,72.63,58,74,13.85,light rain,0.56,0
419,Nouadhibou,MR,2019-11-10 23:04:13,20.93,-17.03,68.0,72,10,18.34,clear sky,0,0
420,Le Port,FR,2019-11-10 23:04:14,42.87,1.37,39.99,90,55,5.01,broken clouds,0.06,0
421,Kathu,ZA,2019-11-10 23:04:14,-27.7,23.05,68.0,28,0,8.84,clear sky,0,0
422,Nisia Floresta,BR,2019-11-10 23:04:14,-6.09,-35.21,78.8,78,92,12.75,overcast clouds,0,0
423,Chunoyar,RU,2019-11-10 23:04:14,57.45,97.32,-3.07,90,100,7.87,overcast clouds,0,0
424,Qinzhou,CN,2019-11-10 23:04:14,21.96,108.62,65.41,63,58,3.31,broken clouds,0,0
425,Sijunjung,ID,2019-11-10 23:04:14,-0.69,100.95,70.5,96,99,1.74,light rain,0.19,0
426,Suntar,RU,2019-11-10 23:04:15,62.16,117.65,-11.03,92,34,4.74,scattered clouds,0,0
427,Miyako,JP,2019-11-10 23:04:15,33.63,130.94,62.6,87,75,8.05,broken clouds,0,0
428,Stepnogorsk,KZ,2019-11-10 23:04:15,52.35,71.88,13.62,82,97,6.67,overcast clouds,0,0
429,Belomorsk,RU,2019-11-10 23:04:15,64.52,34.76,32.49,97,100,14.65,light snow,0,1.06
430,Forestville,CA,2019-11-10 23:04:15,48.74,-69.09,35.6,80,90,18.34,overcast clouds,0,0
431,Rio Grande,BR,2019-11-10 23:04:16,-32.03,-52.1,69.8,88,90,14.99,overcast clouds,0,0
432,Hualmay,PE,2019-11-10 23:04:16,-11.1,-77.61,62.82,83,0,3.29,clear sky,0,0
433,Chingola,ZM,2019-11-10 23:04:16,-12.55,27.86,71.15,54,98,3.49,overcast clouds,0,0
434,Raisen,IN,2019-11-10 23:04:16,23.33,77.78,65.26,56,0,3.13,clear sky,0,0
435,Praia Da Vitoria,PT,2019-11-10 23:04:16,38.73,-27.07,62.6,93,20,2.62,few clouds,0,0
436,Gamba,CN,2019-11-10 23:04:17,28.28,88.52,22.05,55,0,1.05,clear sky,0,0
437,Sedkyrkeshch,RU,2019-11-10 23:04:17,61.72,50.96,26.6,100,90,6.71,overcast clouds,0,0
438,Kulotino,RU,2019-11-10 23:04:17,58.46,33.37,48.6,98,100,2.95,light rain,2.31,0
439,Sao Felix Do Xingu,BR,2019-11-10 23:04:17,-6.64,-51.99,74.61,93,100,2.59,light rain,1.19,0
440,Grindavik,IS,2019-11-10 23:04:18,63.84,-22.43,42.8,87,90,42.5,light intensity drizzle rain,0,0
441,Flin Flon,CA,2019-11-10 23:04:18,54.77,-101.88,6.8,65,90,12.75,light snow,0,0
442,Krasnoye,RU,2019-11-10 23:04:18,44.87,39.46,48.0,100,50,4.47,scattered clouds,0,0
443,Concepcion Del Uruguay,AR,2019-11-10 23:04:18,-32.48,-58.24,75.0,63,4,1.99,clear sky,0,0
444,Marsh Harbour,BS,2019-11-10 23:04:19,26.54,-77.06,75.7,65,11,16.42,few clouds,0,0
445,Conde,BR,2019-11-10 23:04:19,-11.81,-37.61,78.76,82,78,17.63,light rain,0.13,0
446,Gat,SN,2019-11-10 23:04:19,14.69,-16.54,73.4,83,98,12.75,overcast clouds,0,0
447,San Ignacio,PE,2019-11-10 23:04:19,-5.15,-79.0,65.43,94,59,1.79,moderate rain,5.25,0
448,Bilibino,RU,2019-11-10 23:04:19,68.06,166.44,17.74,54,84,4.83,broken clouds,0,0
449,Ancud,CL,2019-11-10 23:04:19,-41.87,-73.83,62.6,63,100,9.17,overcast clouds,0,0
450,Mazagao,BR,2019-11-10 23:04:20,-0.12,-51.29,86.0,70,100,10.29,overcast clouds,0,0
451,Canutama,BR,2019-11-10 23:04:20,-6.53,-64.38,76.24,92,85,3.29,light rain,2.81,0
452,Beringovskiy,RU,2019-11-10 23:04:20,63.05,179.32,34.27,98,100,16.51,light rain,0.19,0
453,Tianpeng,CN,2019-11-10 23:04:20,28.88,112.34,61.18,42,36,6.4,scattered clouds,0,0
454,Komsomolskiy,RU,2019-11-10 23:04:21,67.55,63.78,4.73,91,70,8.55,broken clouds,0,0
455,Shonguy,RU,2019-11-10 23:04:21,68.75,33.15,-5.81,70,75,2.66,light shower snow,0,0
456,Durango,MX,2019-11-10 23:01:59,24.02,-104.67,80.6,21,40,6.93,scattered clouds,0,0
457,Yekaterinoslavka,RU,2019-11-10 23:04:21,54.34,72.46,20.05,48,99,2.57,overcast clouds,0,0
458,Marienburg,DE,2019-11-10 23:04:21,52.12,9.98,37.0,93,0,3.36,clear sky,0,0
459,Caborca,MX,2019-11-10 23:04:22,30.58,-111.1,78.01,50,100,1.01,overcast clouds,0,0
460,Trelew,AR,2019-11-10 23:04:22,-43.25,-65.31,51.01,64,43,18.59,scattered clouds,0,0
461,Gaomi,CN,2019-11-10 23:04:22,36.37,119.8,41.0,41,0,8.46,clear sky,0,0
462,Youghal,IE,2019-11-10 23:04:22,51.95,-7.85,48.0,75,40,18.34,scattered clouds,0,0
463,Narsaq,GL,2019-11-10 23:04:22,60.91,-46.05,35.6,80,100,33.33,shower sleet,0,0
464,Coolum Beach,AU,2019-11-10 23:04:23,-26.53,153.09,77.0,75,0,3.0,clear sky,0,0
465,Waddan,LY,2019-11-10 23:04:23,29.16,16.14,67.01,58,33,6.13,light rain,0.25,0
466,Visby,SE,2019-11-10 23:02:17,57.64,18.3,39.0,100,98,1.12,overcast clouds,0,0
467,Atar,MR,2019-11-10 23:04:23,20.52,-13.05,73.49,17,31,13.42,scattered clouds,0,0
468,Gwalior,IN,2019-11-10 23:04:23,26.2,78.16,67.19,56,0,2.46,clear sky,0,0
469,Chiradzulu,MW,2019-11-10 23:04:24,-15.7,35.18,74.98,64,76,4.21,broken clouds,0,0
470,Hansi,IN,2019-11-10 23:04:24,29.11,75.96,66.63,26,84,2.39,broken clouds,0,0
471,Yate,GB,2019-11-10 23:04:24,51.54,-2.41,44.6,93,75,9.17,light rain,0,0
472,Evans,US,2019-11-10 23:04:24,40.38,-104.69,62.6,19,75,8.05,broken clouds,0,0
473,Adrar,DZ,2019-11-10 23:04:25,27.87,-0.29,59.0,22,0,6.93,clear sky,0,0
474,Chengannur,IN,2019-11-10 23:04:25,9.32,76.61,73.42,96,54,2.17,broken clouds,0,0
475,Syamzha,RU,2019-11-10 23:04:25,60.02,41.06,39.15,99,100,9.51,overcast clouds,0,0
476,Mahibadhoo,MV,2019-11-10 23:04:25,3.78,72.97,81.57,73,35,6.38,moderate rain,5.31,0
477,Kisac,RS,2019-11-10 23:04:25,45.35,19.73,48.2,100,75,3.36,broken clouds,0,0
478,Broken Hill,AU,2019-11-10 23:04:26,-31.97,141.45,73.4,16,0,13.87,clear sky,0,0
479,Biltine,TD,2019-11-10 23:04:26,14.53,20.93,76.12,16,58,11.97,broken clouds,0,0
480,George,MW,2019-11-10 23:04:26,-15.35,34.83,74.98,64,76,4.21,broken clouds,0,0
481,Florianopolis,BR,2019-11-10 23:00:09,-27.6,-48.55,75.0,100,75,12.75,light rain,0,0
482,Nueve De Julio,AR,2019-11-10 23:04:26,-31.67,-68.39,84.72,36,15,18.59,few clouds,0,0
483,Cheb,CZ,2019-11-10 23:04:27,50.08,12.37,34.0,100,90,2.51,fog,0,0
484,Kloulklubed,PW,2019-11-10 23:04:27,7.04,134.26,80.6,83,75,10.29,broken clouds,0,0
485,Kattivakkam,IN,2019-11-10 23:04:27,13.22,80.32,77.0,88,40,2.24,mist,0,0
486,Guerrero Negro,MX,2019-11-10 23:04:27,27.97,-114.04,70.39,66,90,13.09,overcast clouds,0,0
487,Byron Bay,AU,2019-11-10 23:04:27,-28.65,153.62,75.0,53,90,8.05,overcast clouds,0,0
488,Puerto Del Rosario,ES,2019-11-10 23:04:28,28.5,-13.86,69.8,68,20,26.4,few clouds,0,0
489,Diez,DE,2019-11-10 23:04:28,50.37,8.02,39.99,100,90,5.82,light intensity drizzle,0,0
490,Acapulco,MX,2019-11-10 23:04:28,16.86,-99.88,87.8,74,5,6.93,clear sky,0,0
491,Hay River,CA,2019-11-10 23:00:09,60.82,-115.79,8.6,60,20,9.17,few clouds,0,0
492,Praya,ID,2019-11-10 23:00:34,-8.71,116.27,80.6,78,20,1.12,few clouds,0,0
493,San Juan,AR,2019-11-10 23:04:29,-31.54,-68.53,84.72,36,15,18.59,few clouds,0,0
494,Yeppoon,AU,2019-11-10 23:03:55,-23.13,150.74,78.8,36,0,2.24,clear sky,0,0
495,Rovaniemi,FI,2019-11-10 23:04:29,66.5,25.72,8.6,84,82,14.99,broken clouds,0,0
496,Joshimath,IN,2019-11-10 23:04:29,30.57,79.57,41.2,19,67,7.11,broken clouds,0,0
497,Maceio,BR,2019-11-10 23:03:55,-9.67,-35.74,77.0,83,40,9.17,scattered clouds,0,0
498,Abha,SA,2019-11-10 23:04:30,18.22,42.5,57.2,54,0,1.16,clear sky,0,0
499,Dedougou,BF,2019-11-10 23:04:30,12.47,-3.47,84.36,26,90,3.15,overcast clouds,0,0
500,Leh,IN,2019-11-10 23:04:30,34.16,77.58,11.77,51,63,5.88,broken clouds,0,0
501,Pathein,MM,2019-11-10 23:01:08,16.78,94.73,73.53,92,0,4.18,clear sky,0,0
502,Gladstone,AU,2019-11-10 23:04:31,-23.84,151.26,84.0,29,0,4.7,clear sky,0,0
503,Fremont,US,2019-11-10 23:00:16,37.55,-121.99,79.0,21,1,4.7,clear sky,0,0
504,Lebanon,US,2019-11-10 23:04:31,40.34,-76.42,48.2,89,1,2.77,clear sky,0,0
505,Masuguru,MZ,2019-11-10 23:04:31,-11.38,38.46,75.94,75,10,5.64,clear sky,0,0
506,Villafranca De Los Barros,ES,2019-11-10 23:04:31,38.56,-6.34,48.99,90,99,4.0,light rain,0.38,0
507,Amahai,ID,2019-11-10 23:04:32,-3.31,129.0,84.99,87,99,2.91,overcast clouds,0.06,0
508,Pitimbu,BR,2019-11-10 23:04:32,-7.47,-34.81,78.8,78,20,8.05,few clouds,0,0
509,Otane,NZ,2019-11-10 23:04:32,-39.89,176.62,57.0,78,63,11.99,broken clouds,0.06,0
510,Cranbrook,CA,2019-11-10 23:04:32,49.51,-115.76,26.6,86,90,4.7,light snow,0,0
511,Meadow Lake,CA,2019-11-10 23:04:33,54.13,-108.44,3.2,65,75,12.75,broken clouds,0,0
512,Ayagoz,KZ,2019-11-10 23:04:33,47.96,80.43,14.79,79,49,15.52,scattered clouds,0,0
513,South River,US,2019-11-10 23:01:52,40.45,-74.39,52.0,62,75,4.23,broken clouds,0,0
514,Dingle,PH,2019-11-10 23:04:33,11.0,122.67,78.91,76,84,1.41,broken clouds,0,0
515,Playa Vicente,MX,2019-11-10 23:04:33,17.83,-95.81,75.0,89,66,1.01,light rain,0.44,0
516,Savyon,IL,2019-11-10 23:04:34,32.05,34.88,75.99,55,68,2.24,broken clouds,0,0
517,Hervey Bay,AU,2019-11-10 23:00:45,-25.3,152.85,84.0,40,0,11.41,clear sky,0,0
518,Pangnirtung,CA,2019-11-10 23:04:34,66.15,-65.72,16.18,61,96,10.18,overcast clouds,0,0
519,Peniche,PT,2019-11-10 23:04:34,39.36,-9.38,60.01,93,75,8.05,light intensity drizzle rain,0,0
520,Mujiayingzi,CN,2019-11-10 23:04:34,42.12,118.78,36.28,55,0,7.76,clear sky,0,0
521,Cockburn Town,TC,2019-11-10 23:04:35,21.46,-71.14,82.4,78,40,3.36,scattered clouds,0,0
522,Tadine,NC,2019-11-10 23:04:35,-21.55,167.88,77.63,47,25,11.9,scattered clouds,0,0
523,Kununurra,AU,2019-11-10 23:04:35,-15.77,128.74,84.2,70,72,4.7,broken clouds,0,0
524,Opuwo,NA,2019-11-10 23:04:35,-18.06,13.84,71.82,66,100,2.77,overcast clouds,0,0
525,Innisfail,AU,2019-11-10 23:04:35,-17.52,146.03,77.0,53,20,1.99,few clouds,0,0
526,Erzin,TR,2019-11-10 23:04:35,36.95,36.2,66.99,76,20,3.06,few clouds,0,0
527,Anadyr,RU,2019-11-10 23:04:36,64.73,177.51,37.4,86,40,24.61,light rain,0,0
528,Kentau,KZ,2019-11-10 23:04:36,43.52,68.5,32.45,57,16,3.15,few clouds,0,0
529,Xai-Xai,MZ,2019-11-10 23:04:36,-25.04,33.64,71.53,80,100,5.97,overcast clouds,0,0
530,South Lake Tahoe,US,2019-11-10 23:04:23,38.93,-119.98,72.0,10,1,4.34,clear sky,0,0
531,Dunedin,NZ,2019-11-10 23:04:36,-45.87,170.5,50.0,69,100,21.99,overcast clouds,0,0
532,Breza,BA,2019-11-10 23:04:37,44.02,18.26,46.4,100,75,2.24,broken clouds,0,0
533,Rawson,AR,2019-11-10 23:04:37,-43.3,-65.11,52.99,75,50,15.35,scattered clouds,0,0
534,Ballina,IE,2019-11-10 23:04:37,54.11,-9.15,46.0,84,74,17.0,light rain,0,0
535,Keti Bandar,PK,2019-11-10 23:04:37,24.14,67.45,72.61,28,24,8.43,few clouds,0,0
536,Formosa Do Rio Preto,BR,2019-11-10 23:04:37,-11.04,-45.19,76.28,35,100,1.59,overcast clouds,0,0
537,Nara,JP,2019-11-10 23:04:38,34.68,135.8,64.4,72,75,16.11,broken clouds,0,0
538,Sabha,LY,2019-11-10 23:04:38,27.03,14.43,72.75,34,89,15.61,light rain,0.25,0
539,Doka,SD,2019-11-10 23:04:38,13.52,35.76,76.69,30,0,6.11,clear sky,0,0
540,Hlukhiv,UA,2019-11-10 23:04:38,51.68,33.91,45.43,91,83,11.54,broken clouds,0,0
541,Muroto,JP,2019-11-10 23:04:39,33.37,134.14,55.4,87,40,5.82,scattered clouds,0,0
542,Manjacaze,MZ,2019-11-10 23:04:39,-24.71,33.88,69.26,87,84,4.83,broken clouds,0,0
543,Pisco,PE,2019-11-10 23:04:39,-13.71,-76.2,71.6,30,20,5.82,few clouds,0,0
544,Frankfort,US,2019-11-10 23:02:54,38.2,-84.87,64.4,44,1,5.82,clear sky,0,0
545,Guaraniacu,BR,2019-11-10 23:04:40,-25.1,-52.88,71.6,94,40,8.05,scattered clouds,0,0
546,Saint-Georges,CA,2019-11-10 23:04:40,46.12,-70.67,37.99,93,100,5.01,light snow,0,0.12
547,Hasaki,JP,2019-11-10 23:01:35,35.73,140.83,55.4,100,75,3.36,shower rain,0,0
548,Numan,NG,2019-11-10 23:04:40,9.46,12.04,80.51,35,63,2.37,broken clouds,0,0
549,Rognan,NO,2019-11-10 23:04:40,67.1,15.4,19.4,62,0,23.04,clear sky,0,0
550,Carroll,AU,2019-11-10 23:04:41,-30.99,150.44,73.0,30,26,1.12,scattered clouds,0,0
551,Ano Mera,GR,2019-11-10 23:04:41,37.45,25.4,70.0,82,20,5.82,few clouds,0,0
